[
    {
        "id": 3,
        "name": "Stanford University",
        "category": "Edu",
        "image": "0fa2e1ed-392c-4e92-ea50-c88460fe9400",
        "source": "Adobe",
        "city": "Palo Alto",
        "address": "450 Jane Stanford Way",
        "latitude": 37.42859,
        "longitude": -122.17077,
        "description": "A world-renowned private research university, known for its academic prestige, picturesque campus, and pioneering contributions to innovation.",
        "public": true
    },
    {
        "id": 19,
        "name": "Apple Infinite Loop Campus",
        "category": "Tech",
        "image": "211d33ce-fd6d-4879-070f-37bf77b9ab00",
        "source": "Adobe",
        "city": "Cupertino",
        "address": "1 Infinite Loop",
        "latitude": 37.331669,
        "longitude": -122.030098,
        "description": "Apple’s classic corporate campus, known for its sleek architecture and role in Apple’s history and innovation.",
        "public": false
    },
    {
        "id": 20,
        "name": "Apple Park Visitor Center",
        "category": "Tech",
        "image": "3a93110f-b011-4484-30c5-c49bd0cab400",
        "source": "Adobe",
        "city": "Cupertino",
        "address": "10600 North Tantau Avenue",
        "latitude": 37.332801,
        "longitude": -122.005821,
        "description": "A visitor center for Apple’s futuristic Apple Park campus, featuring a café, store with exclusive merchandise, and a rooftop viewing deck.",
        "public": true
    },
    {
        "id": 21,
        "name": "Googleplex",
        "category": "Tech",
        "image": "1159fe68-86ee-49ee-3b78-cfbcd73f8300",
        "source": "iStock",
        "city": "Mountain View",
        "address": "1600 Amphitheatre Parkway",
        "latitude": 37.422716,
        "longitude": -122.084256,
        "description": "Google’s main headquarters, known for its innovative design, bike-friendly campus, and environment fostering creativity.",
        "public": false
    },
    {
        "id": 17,
        "name": "Levi's Stadium",
        "category": "Sports",
        "image": "6fe5a8e6-2044-4460-ecc7-4dccdd539f00",
        "source": "iStock",
        "city": "Santa Clara",
        "address": "4900 Marie P DeBartolo Way",
        "latitude": 37.403158,
        "longitude": -121.969831,
        "description": "Home to the San Francisco 49ers, this state-of-the-art stadium hosts football games, concerts, and large-scale events.",
        "public": true
    },
    {
        "id": 22,
        "name": "Google Bay View",
        "category": "Tech",
        "image": "c0e683e0-0b9a-4cee-39ad-5299ffe69500",
        "source": "iStock",
        "city": "Mountain View",
        "address": "100 Bay Vw Dr",
        "latitude": 37.6381,
        "longitude": -122.04467,
        "description": "An expansion of Google’s office space featuring sustainable design, modern architecture, and energy-efficient structures.",
        "public": false
    },
    {
        "id": 16,
        "name": "Santana Row",
        "category": "Shopping",
        "image": "91997dcb-2de9-480c-080b-d5cbad53e600",
        "source": "iStock",
        "city": "San Jose",
        "address": "377 Santana Row",
        "latitude": 37.320348,
        "longitude": -121.949734,
        "description": "A stylish shopping and dining district with upscale boutiques, international restaurants, and a European-influenced streetscape.",
        "public": true
    },
    {
        "id": 15,
        "name": "California's Great America",
        "category": "Recreation",
        "image": "ba9f6c0a-e98b-49f0-f000-3a52a6efb500",
        "source": "iStock",
        "city": "Santa Clara",
        "address": "4701 Great America Pkwy",
        "latitude": 37.395414,
        "longitude": -121.972086,
        "description": "A popular amusement park offering roller coasters, family rides, shows, and a water park.",
        "public": true
    },
    {
        "id": 12,
        "name": "Fremont Older Preserve",
        "category": "Nature",
        "image": "04690207-ac42-43b7-58bf-7deef0412700",
        "source": "Google",
        "city": "Cupertino",
        "address": "22898 Prospect Rd",
        "latitude": 37.286019,
        "longitude": -122.06073,
        "description": "A scenic open space preserve offering hiking and horseback riding trails, panoramic views, and a tranquil natural environment.",
        "public": true
    },
    {
        "id": 13,
        "name": "Picchetti Ranch Preserve",
        "category": "Nature",
        "image": "dd602802-6f4b-4e48-53e0-8cd7cd5b5200",
        "source": "Google",
        "city": "Cupertino",
        "address": "13100 Montebello Rd",
        "latitude": 37.29406,
        "longitude": -122.090463,
        "description": "An open space preserve known for its historic winery buildings, orchards, and well-maintained hiking trails.",
        "public": true
    },
    {
        "id": 14,
        "name": "Shoreline Park",
        "category": "Nature",
        "image": "aed8234f-430f-4088-d977-e26c7fdbd400",
        "source": "Google",
        "city": "Mountain View",
        "address": "3070 N Shoreline Blvd",
        "latitude": 37.431457,
        "longitude": -122.087113,
        "description": "A large waterfront park with walking and biking paths, a sailing lake, a golf course, and picnic areas.",
        "public": true
    },
    {
        "id": 5,
        "name": "HP Garage",
        "category": "History",
        "image": "45da4f70-3aa1-4d8d-c4d7-230d10054700",
        "source": "Adobe",
        "city": "Palo Alto",
        "address": "367 Addison Ave",
        "latitude": 37.44303,
        "longitude": -122.15466,
        "description": "The birthplace of Silicon Valley, where Hewlett-Packard got its start, symbolizing early tech entrepreneurship.",
        "public": false
    },
    {
        "id": 6,
        "name": "The Tech Interactive",
        "category": "History",
        "image": "718fb1f9-9951-4263-bdc6-fe369ae95200",
        "source": "Adobe",
        "city": "San Jose",
        "address": "201 S Market St",
        "latitude": 37.331404,
        "longitude": -121.890156,
        "description": "A hands-on science and technology museum in San Jose offering interactive exhibits and educational programs.",
        "public": true
    },
    {
        "id": 7,
        "name": "Winchester Mystery House",
        "category": "History",
        "image": "e87ee458-9229-42c9-b66f-51843b83ef00",
        "source": "Adobe",
        "city": "San Jose",
        "address": "525 S Winchester Blvd",
        "latitude": 37.318293,
        "longitude": -121.950988,
        "description": "A Victorian mansion famous for its architectural oddities and secret passages, now a popular tourist attraction.",
        "public": true
    },
    {
        "id": 8,
        "name": "Rosicrucian Egyptian Museum",
        "category": "History",
        "image": "fe481644-179b-413f-d22c-c7ca60fcd900",
        "source": "Adobe",
        "city": "San Jose",
        "address": "1660 Park Ave",
        "latitude": 37.302688,
        "longitude": -121.887413,
        "description": "A museum showcasing the largest collection of Egyptian artifacts on display in the western U.S.",
        "public": true
    },
    {
        "id": 9,
        "name": "The Computer History Museum",
        "category": "History",
        "image": "e8799f41-209b-411c-3fc8-16536f096b00",
        "source": "iStock",
        "city": "Mountain View",
        "address": "1401 N Shoreline Blvd",
        "latitude": 37.414293,
        "longitude": -122.077448,
        "description": "A museum dedicated to the evolution of computing technology, showcasing rare artifacts and interactive exhibits.",
        "public": true
    },
    {
        "id": 10,
        "name": "Apple Garage",
        "category": "History",
        "image": "b6dcf051-12a6-44c3-3bd8-a51478758100",
        "source": "iStock",
        "city": "Los Altos",
        "address": "2066 Crist Drive",
        "latitude": 37.340091,
        "longitude": -122.068832,
        "description": "The suburban garage where Steve Jobs and Steve Wozniak founded Apple, sparking a technological revolution.",
        "public": false
    },
    {
        "id": 11,
        "name": "Intel Museum",
        "category": "History",
        "image": "c3e56245-cb57-4bf3-574d-d5cb5e31c700",
        "source": "iStock",
        "city": "Santa Clara",
        "address": "2200 Mission College Blvd",
        "latitude": 37.388266,
        "longitude": -121.963779,
        "description": "A museum chronicling the semiconductor industry and Intel’s contributions, featuring interactive and educational exhibits.",
        "public": true
    },
    {
        "id": 4,
        "name": "Santa Clara University",
        "category": "Edu",
        "image": "97fe458a-2e61-4957-ba31-dea2331dde00",
        "source": "Adobe",
        "city": "Santa Clara",
        "address": "500 El Camino Real",
        "latitude": 37.348624,
        "longitude": -121.936544,
        "description": "A private Jesuit university known for its academic excellence, historic campus, and mission-driven education.",
        "public": true
    },
    {
        "id": 1,
        "name": "Main Street Cupertino",
        "category": "Dining",
        "image": "8a3e0e85-4898-4099-4c45-32e95b5e0100",
        "source": "Adobe",
        "city": "Cupertino",
        "address": "19401 Stevens Creek Blvd",
        "latitude": 37.32308,
        "longitude": -122.01021,
        "description": "A vibrant mixed-use development offering a variety of restaurants, shops, and cafés, popular for dining and leisure.",
        "public": true
    },
    {
        "id": 18,
        "name": "Meta Headquarters",
        "category": "Tech",
        "image": "60911fb5-c706-4e58-a509-3a34c49c3f00",
        "source": "Adobe",
        "city": "Menlo Park",
        "address": "1 Hacker Way",
        "latitude": 37.484928,
        "longitude": -122.148201,
        "description": "Home to Meta (Facebook), known for its social media innovation and modern, collaborative office designs.",
        "public": false
    },
    {
        "id": 2,
        "name": "San Pedro Square Market",
        "category": "Dining",
        "image": "2a6ee842-4d26-4af0-9ef5-40cb971aac00",
        "source": "iStock",
        "city": "San Jose",
        "address": "87 N San Pedro S",
        "latitude": 37.33652,
        "longitude": -121.89432,
        "description": "A lively market in downtown San Jose with diverse food vendors, bars, live entertainment, and a historic ambiance.",
        "public": true
    }
]
